[
  {
    "id": "sov_62_army",
    "name": "第62集团军",
    "side": "Soviet",
    "echelon": "Army",
    "lat": 48.76588,
    "lon": 44.55088,
    "strength": 73,
    "equipment": [
      "步兵",
      "火炮"
    ],
    "parentId": "STAVKA",
    "ap": 4,
    "supply": "Good"
  },
  {
    "id": "sov_13_guard",
    "name": "第13近卫师",
    "side": "Soviet",
    "echelon": "Division",
    "lat": 48.80361,
    "lon": 44.60861,
    "strength": 77,
    "equipment": [
      "步兵",
      "火炮"
    ],
    "parentId": "sov_62_army",
    "ap": 2,
    "supply": "Low"
  },
  {
    "id": "sov_95_div",
    "name": "第95步兵师",
    "side": "Soviet",
    "echelon": "Division",
    "lat": 48.75567,
    "lon": 44.58067,
    "strength": 73,
    "equipment": [
      "步兵",
      "火炮"
    ],
    "parentId": "sov_62_army",
    "ap": 2,
    "supply": "Good"
  },
  {
    "id": "sov_284_div",
    "name": "第284步兵师",
    "side": "Soviet",
    "echelon": "Division",
    "lat": 48.82555,
    "lon": 44.66055,
    "strength": 75,
    "equipment": [
      "步兵",
      "火炮"
    ],
    "parentId": "sov_62_army",
    "ap": 4,
    "supply": "Stretched"
  },
  {
    "id": "sov_35_guard",
    "name": "第35近卫团",
    "side": "Soviet",
    "echelon": "Regiment",
    "lat": 48.77936,
    "lon": 44.66436,
    "strength": 73,
    "equipment": [
      "步兵",
      "火炮"
    ],
    "parentId": "sov_13_guard",
    "ap": 3,
    "supply": "Low"
  },
  {
    "id": "axis_6_army",
    "name": "第6集团军",
    "side": "Axis",
    "echelon": "Army",
    "lat": 48.65056,
    "lon": 44.24556,
    "strength": 73,
    "equipment": [
      "步兵",
      "火炮"
    ],
    "parentId": "OKH",
    "ap": 3,
    "supply": "Low"
  },
  {
    "id": "axis_51_corps",
    "name": "第51军",
    "side": "Axis",
    "echelon": "Corps",
    "lat": 48.58855,
    "lon": 44.22355,
    "strength": 68,
    "equipment": [
      "步兵",
      "火炮"
    ],
    "parentId": "axis_6_army",
    "ap": 2,
    "supply": "Low"
  },
  {
    "id": "axis_14_panzer",
    "name": "第14装甲师",
    "side": "Axis",
    "echelon": "Division",
    "lat": 48.61696,
    "lon": 44.28196,
    "strength": 73,
    "equipment": [
      "坦克",
      "机械化步兵"
    ],
    "parentId": "axis_51_corps",
    "ap": 2,
    "supply": "Stretched"
  },
  {
    "id": "axis_24_panzer",
    "name": "第24装甲师",
    "side": "Axis",
    "echelon": "Division",
    "lat": 48.65958,
    "lon": 44.29458,
    "strength": 79,
    "equipment": [
      "坦克",
      "机械化步兵"
    ],
    "parentId": "axis_51_corps",
    "ap": 3,
    "supply": "Good"
  },
  {
    "id": "axis_389_div",
    "name": "第389步兵师",
    "side": "Axis",
    "echelon": "Division",
    "lat": 48.67632,
    "lon": 44.25132,
    "strength": 77,
    "equipment": [
      "步兵",
      "火炮"
    ],
    "parentId": "axis_6_army",
    "ap": 4,
    "supply": "Good"
  },
  {
    "id": "axis_71_reg",
    "name": "第71掷弹兵团",
    "side": "Axis",
    "echelon": "Regiment",
    "lat": 48.59316,
    "lon": 44.32816,
    "strength": 68,
    "equipment": [
      "步兵",
      "火炮"
    ],
    "parentId": "axis_389_div",
    "ap": 3,
    "supply": "Good"
  },
  {
    "id": "sov_138_div",
    "name": "第138步兵师",
    "side": "Soviet",
    "echelon": "Division",
    "lat": 48.70949,
    "lon": 44.68449,
    "strength": 71,
    "equipment": [
      "步兵",
      "火炮"
    ],
    "parentId": "sov_62_army",
    "ap": 4,
    "supply": "Stretched"
  }
]