[
  {
    "id": "sov_62_army",
    "name": "第62集团军",
    "side": "Soviet",
    "echelon": "Army",
    "lat": 48.7081,
    "lon": 44.5051,
    "strength": 87,
    "equipment": [
      "步兵",
      "火炮"
    ],
    "parentId": "STAVKA",
    "ap": 4,
    "supply": "Good"
  },
  {
    "id": "sov_13_guard",
    "name": "第13近卫师",
    "side": "Soviet",
    "echelon": "Division",
    "lat": 48.74317,
    "lon": 44.56017,
    "strength": 95,
    "equipment": [
      "步兵",
      "火炮"
    ],
    "parentId": "sov_62_army",
    "ap": 6,
    "supply": "Low"
  },
  {
    "id": "sov_95_div",
    "name": "第95步兵师",
    "side": "Soviet",
    "echelon": "Division",
    "lat": 48.69879,
    "lon": 44.53579,
    "strength": 94,
    "equipment": [
      "步兵",
      "火炮"
    ],
    "parentId": "sov_62_army",
    "ap": 4,
    "supply": "Stretched"
  },
  {
    "id": "sov_284_div",
    "name": "第284步兵师",
    "side": "Soviet",
    "echelon": "Division",
    "lat": 48.76226,
    "lon": 44.60926,
    "strength": 97,
    "equipment": [
      "步兵",
      "火炮"
    ],
    "parentId": "sov_62_army",
    "ap": 6,
    "supply": "Good"
  },
  {
    "id": "sov_35_guard",
    "name": "第35近卫团",
    "side": "Soviet",
    "echelon": "Regiment",
    "lat": 48.72787,
    "lon": 44.62487,
    "strength": 90,
    "equipment": [
      "步兵",
      "火炮"
    ],
    "parentId": "sov_13_guard",
    "ap": 5,
    "supply": "Low"
  },
  {
    "id": "axis_6_army",
    "name": "第6集团军",
    "side": "Axis",
    "echelon": "Army",
    "lat": 48.70515,
    "lon": 44.28815,
    "strength": 84,
    "equipment": [
      "步兵",
      "火炮"
    ],
    "parentId": "OKH",
    "ap": 5,
    "supply": "Low"
  },
  {
    "id": "axis_51_corps",
    "name": "第51军",
    "side": "Axis",
    "echelon": "Corps",
    "lat": 48.63709,
    "lon": 44.26009,
    "strength": 91,
    "equipment": [
      "步兵",
      "火炮"
    ],
    "parentId": "axis_6_army",
    "ap": 6,
    "supply": "Good"
  },
  {
    "id": "axis_14_panzer",
    "name": "第14装甲师",
    "side": "Axis",
    "echelon": "Division",
    "lat": 48.6845,
    "lon": 44.3375,
    "strength": 85,
    "equipment": [
      "坦克",
      "机械化步兵"
    ],
    "parentId": "axis_51_corps",
    "ap": 5,
    "supply": "Stretched"
  },
  {
    "id": "axis_24_panzer",
    "name": "第24装甲师",
    "side": "Axis",
    "echelon": "Division",
    "lat": 48.72809,
    "lon": 44.35109,
    "strength": 96,
    "equipment": [
      "坦克",
      "机械化步兵"
    ],
    "parentId": "axis_51_corps",
    "ap": 5,
    "supply": "Low"
  },
  {
    "id": "axis_389_div",
    "name": "第389步兵师",
    "side": "Axis",
    "echelon": "Division",
    "lat": 48.7463,
    "lon": 44.3093,
    "strength": 89,
    "equipment": [
      "步兵",
      "火炮"
    ],
    "parentId": "axis_6_army",
    "ap": 5,
    "supply": "Stretched"
  },
  {
    "id": "axis_71_reg",
    "name": "第71掷弹兵团",
    "side": "Axis",
    "echelon": "Regiment",
    "lat": 48.64998,
    "lon": 44.37298,
    "strength": 97,
    "equipment": [
      "步兵",
      "火炮"
    ],
    "parentId": "axis_389_div",
    "ap": 4,
    "supply": "Good"
  },
  {
    "id": "sov_138_div",
    "name": "第138步兵师",
    "side": "Soviet",
    "echelon": "Division",
    "lat": 48.64946,
    "lon": 44.63646,
    "strength": 86,
    "equipment": [
      "步兵",
      "火炮"
    ],
    "parentId": "sov_62_army",
    "ap": 5,
    "supply": "Stretched"
  }
]